Site,Latitude,Longitude,Biome,MAP,MAT,Functional Type,Average Wind Speed,Average Sap Flux,K-Means Label
ARG_MAZ,-51.57944000000001,-72.28639,Woodland/Shrubland,471.5845260994643,4.034818139939112,0,7.261666666666666,2191.176228689599,2
ARG_TRE,-51.31667,-72.185,Woodland/Shrubland,442.3418037401507,4.7516285248065415,0,6.575833333333333,441.4821666974656,0
AUS_RIC_EUC_ELE,-33.6177777777778,150.74027777777778,Woodland/Shrubland,898.6187982976855,17.6,1,2.56,1373.1554859267333,0
AUS_WOM,-37.4222,144.0944,Temperate forest,1023.8291743244556,10.917803669211505,1,4.675,6870.172446880593,3
CAN_TUR_P39_POS,42.7097777778,-80.3574,Temperate forest,1000.3439889558788,9.0,1,3.734166666666667,1276.3877267063554,0
CAN_TUR_P39_PRE,42.7097777778,-80.3574,Temperate forest,1000.3439889558788,9.0,1,3.734166666666667,746.4273215341524,0
CAN_TUR_P74,42.7068111111,-80.34831388890001,Temperate forest,1002.6151231402756,9.000000000000002,1,3.73,162.11525569452738,0
CHE_DAV_SEE,46.81668,9.856198,Temperate forest,840.0492344086588,3.835492337507554,1,2.5925,202.1211441502616,0
CRI_TAM_TOW,10.386944444444444,-84.62583333333333,Tropical rain forest,3625.909579575401,22.97295965992198,missing,2.895833333333333,3032.5754744602864,1
CZE_BIK,49.494444444444454,18.53,Temperate forest,1144.3962443085368,6.183281816068088,1,3.7608333333333333,546.9855577414262,0
CZE_KRT_KRT,49.3223336,16.7486453,Woodland/Shrubland,623.4515285917612,7.961357132488552,1,3.8925,257.7456196458081,0
CZE_LAN,48.68166666666666,16.94638888888889,Woodland/Shrubland,538.0815160187695,10.4,0,3.2066666666666666,3487.892483180236,2
CZE_LIZ_LES,49.06668,13.67975,Temperate forest,837.0527287696275,6.030012700734641,1,3.5525,718.5546347604933,0
CZE_STI,49.03583333333333,17.97,Temperate forest,823.6945061316617,7.643341025772535,0,3.8441666666666663,3898.737744826479,2
CZE_UTE_BEE,49.2835917,16.6519047,Woodland/Shrubland,538.7759296481524,8.501970483758196,0,3.5916666666666663,2158.247056334726,2
CZE_UTE_BNA,49.2809075,16.6487236,Woodland/Shrubland,554.9168640797997,8.60415451138174,0,3.5916666666666663,670.134301949987,0
CZE_UTE_BPO,49.280925,16.6479942,Woodland/Shrubland,558.3600451859314,8.610360359867014,0,3.5916666666666663,1061.104295320435,0
CZE_UTE_SPR,49.280368599999996,16.6462989,Woodland/Shrubland,566.3309162008308,8.645616510290672,1,3.5916666666666663,468.69583764808266,0
DEU_STE_2P3,53.1,13.0,Woodland/Shrubland,594.6022627127221,8.9,0,3.785,2312.5895015272918,2
DEU_STE_4P5,53.1,13.0,Woodland/Shrubland,594.6022627127221,8.9,0,3.785,3094.517331574136,2
ESP_ALT_ARM,40.7769,-2.3283,Woodland/Shrubland,647.8553695965494,11.539147033715231,2,2.7075,737.5757505267557,0
ESP_ALT_HUE,40.7925,-2.2872,Woodland/Shrubland,520.6367407888545,12.245018986001911,2,2.7291666666666665,1015.5057146826816,0
ESP_ALT_TRI,40.8044,-2.2328,Woodland/Shrubland,566.9561664217473,11.743459189695738,1,2.7466666666666666,890.4594321282542,0
ESP_CAN,41.430988888899996,2.07361111111111,Woodland/Shrubland,763.3799028388486,15.37706180524204,2,2.9933333333333336,498.7228028856152,0
ESP_SAN_A2_45I,37.249105,-5.797067,Tropical forest savanna,598.1261450362573,18.5,1,2.885,165.13329988803397,0
ESP_SAN_A_45I,37.249105,-5.797067,Tropical forest savanna,598.1261450362573,18.5,1,2.885,114.53888845779785,0
ESP_SAN_B2_100,37.249105,-5.797067,Tropical forest savanna,598.1261450362573,18.5,1,2.885,225.29789763629952,0
ESP_SAN_B_100,37.249105,-5.797067,Tropical forest savanna,598.1261450362573,18.5,1,2.885,133.19079573081385,0
ESP_TIL_MIX,41.33262995,1.0144288000000001,Woodland/Shrubland,651.2747274910893,10.483546437312134,1,3.6008333333333336,240.59421171015416,0
ESP_TIL_OAK,41.33262416,1.01409989,Woodland/Shrubland,651.3032142911828,10.4951943694421,1,3.6008333333333336,101.46508932514121,0
ESP_TIL_PIN,41.328113,1.006642,Woodland/Shrubland,674.2422356897288,10.087120062117119,1,3.6008333333333336,353.72029617096496,0
ESP_VAL_SOR,42.19605278,1.8135611,Woodland/Shrubland,622.8961375657409,8.503677064013853,1,4.6525,404.75173246557625,0
FIN_PET,69.491822025,27.2310822944,Woodland/Shrubland,415.4990215765709,-0.2114593025875116,0,2.4616666666666664,31.016225100101572,0
FRA_HES_HE1_NON,48.6742,7.0647,Temperate forest,1003.480624535542,9.970148971480416,0,3.2700000000000014,408.8894221320639,0
FRA_HES_HE2_NON,48.6742,7.0647,Temperate forest,1003.480624535542,9.970148971480416,0,3.2700000000000014,659.5521650457282,0
FRA_PUE,43.74138888888889,3.5958333333333337,Woodland/Shrubland,1022.9742806569658,13.796654344063086,1,4.370833333333334,92.28528998502364,0
GBR_ABE_PLO,56.61600000000001,-3.8,Temperate forest,971.2289645770106,7.317755012148952,1,4.355833333333333,153.76444625656575,0
GBR_DEV_CON,56.03333000000001,-3.7166669999999997,Woodland/Shrubland,814.9665774078702,9.4,1,4.59,696.24132448673,0
GBR_DEV_DRO,56.03333000000001,-3.7166669999999997,Woodland/Shrubland,814.9665774078702,9.4,1,4.59,438.70138452759767,0
GBR_GUI_ST1,57.26666700000001,-4.816667,Temperate forest,1472.9548624827808,6.951691056807003,1,4.23,675.9799392390493,0
GBR_GUI_ST2,57.26666700000001,-4.816667,Temperate forest,1472.9548624827808,6.951691056807003,1,4.23,2319.3539126328824,2
GBR_GUI_ST3,57.26666700000001,-4.816667,Temperate forest,1472.9548624827808,6.951691056807003,1,4.23,1467.462720206272,0
GUF_GUY_GUY,5.278772,-52.924863,Tropical rain forest,2706.433925783935,26.14525250400182,2,2.1358333333333333,4658.079545215786,1
GUF_GUY_ST2,5.28166666666667,-52.91222222222221,Tropical rain forest,2815.7351737301237,26.1,1,2.2075,3917.162928518073,1
IDN_JAM_OIL,-2.0708889,102.7918333,Tropical rain forest,2825.8190047904327,26.2,1,1.2983333333333331,3345.8714046366667,1
IDN_JAM_RUB,-2.095278,102.783222,Tropical rain forest,2930.8308946415705,26.195803864133342,0,1.2900000000000005,1318.651582051838,1
ISR_YAT_YAT,31.344999313354396,35.0514984130859,Subtropical desert,378.89191470457223,17.438677799671268,1,2.9008333333333343,944.4630283896656,0
ITA_FEI_S17,46.69352,10.61287,Temperate forest,672.0409965771453,3.5761535072978563,0,2.274166666666667,860.9605242624483,0
ITA_KAE_S20,46.69767,10.60717,Boreal forest,772.7678779241278,1.896036227180796,0,2.274166666666667,1084.613269236271,0
ITA_MAT_S21,46.74,10.690861111111113,Boreal forest,677.5953324665455,0.8339412028977724,2,3.3616666666666664,1120.8604961510357,0
ITA_MUN,46.67772,10.57808,Woodland/Shrubland,583.8984690601108,6.536464699119117,0,1.8341666666666665,590.0498987794276,0
ITA_RUN_N20,46.69865,10.64222,Boreal forest,781.6621280784627,1.8272192340494569,2,3.189166666666667,560.0253596632641,0
ITA_TOR,45.82376,7.56089,Temperate forest,754.6507373082958,2.126712686785244,0,2.7891666666666666,323.2793588459756,0
NLD_LOO,52.16648333333333,5.7435527777777775,Woodland/Shrubland,869.5996049842745,9.91298080709254,1,4.0150000000000015,492.5567233397457,0
NZL_HUA_HUA,-36.7958,174.4903,Temperate forest,1371.2343226680416,14.97470581069803,1,4.870833333333334,3015.8550390971996,2
PRT_LEZ_ARN,38.8333333333333,-8.81666666666667,Woodland/Shrubland,713.1668713551393,17.0,1,3.3841666666666668,10042.963389057591,3
RUS_POG_VAR,56.36,92.95,Woodland/Shrubland,410.4158845341127,1.0936934129856026,2,2.5158333333333336,451.1513290507136,0
SEN_SOU_IRR,16.344,-15.427999999999999,Subtropical desert,248.00000000000003,28.9,0,2.924166666666667,1457.8289001748553,0
SEN_SOU_POS,16.344,-15.427999999999999,Subtropical desert,248.00000000000003,28.9,0,2.924166666666667,1157.2204724796538,0
SEN_SOU_PRE,16.344,-15.427999999999999,Subtropical desert,248.00000000000003,28.9,0,2.924166666666667,1020.4885019219338,0
SWE_NOR_ST1_BEF,60.08600000000001,17.48,Woodland/Shrubland,564.1492436799361,6.1,missing,2.8825,576.4287921284649,0
SWE_NOR_ST2,60.08600000000001,17.48,Woodland/Shrubland,564.1492436799361,6.1,1,2.8825,391.5832980298847,0
SWE_NOR_ST3,60.08600000000001,17.48,Woodland/Shrubland,564.1492436799361,6.1,1,2.8825,483.56974235919637,0
SWE_NOR_ST4_AFT,60.083,17.476,Woodland/Shrubland,564.1435460987616,6.1,2,2.8816666666666664,730.2413160878785,0
SWE_NOR_ST4_BEF,60.083,17.476,Woodland/Shrubland,564.1435460987616,6.1,1,2.8816666666666664,475.8025786094526,0
SWE_NOR_ST5_REF,60.083,17.476,Woodland/Shrubland,564.1435460987616,6.1,2,2.8816666666666664,597.7416608574403,0
THA_KHU,15.273,103.081,Tropical forest savanna,1178.0090687851614,27.20655273436945,0,1.471666666666667,634.1176459741881,0
USA_DUK_HAR,36.978175,-79.09419083333333,Temperate forest,1189.0459452487833,14.591959500821698,0,2.4133333333333336,2004.697359197761,2
USA_HIL_HF1_POS,36.21732120000001,-78.864178648,Temperate forest,1218.7868723267059,15.14047287356184,2,2.441666666666667,1290.4530714879716,0
USA_HIL_HF1_PRE,36.21732120000001,-78.864178648,Temperate forest,1218.7868723267059,15.14047287356184,2,2.441666666666667,955.131985656472,0
USA_HIL_HF2,36.217476608000005,-78.863993733,Temperate forest,1219.2893060147192,15.138607977554404,2,2.441666666666667,2566.0854674812745,2
USA_HUY_LIN_NON,42.5275305555556,-74.1572027777778,Temperate forest,859.5962309235512,7.858995128807362,1,3.599166666666667,1238.094601313844,0
USA_INM,39.323228,-86.413239,Temperate forest,1157.875702542217,12.026031919391516,0,3.673333333333333,2826.711386024323,2
USA_ORN_ST1_AMB,35.9,-84.333,Temperate forest,1217.004417976762,15.1,0,1.9666666666666668,436.2414101403089,0
USA_ORN_ST2_AMB,35.9,-84.333,Temperate forest,1217.004417976762,15.1,0,1.9666666666666668,501.00477738852265,0
USA_ORN_ST3_ELE,35.9,-84.333,Temperate forest,1217.004417976762,15.1,0,1.9666666666666668,464.3175635716056,0
USA_ORN_ST4_ELE,35.9,-84.333,Temperate forest,1217.004417976762,15.1,0,1.9666666666666668,396.5212763780288,0
USA_PAR_FER,35.8031111111111,-76.6679166666667,Temperate forest,1284.4380721104974,16.6,1,2.8766666666666665,1213.104645630624,0
USA_PJS_P04_AMB,34.38638888888889,-106.52944444444401,Temperate grassland desert,311.42915626859866,12.667087645095911,1,3.925833333333333,178.88013187225516,0
USA_PJS_P08_AMB,34.38638888888889,-106.52944444444401,Temperate grassland desert,311.42915626859866,12.667087645095911,1,3.925833333333333,287.02650977271213,0
USA_PJS_P12_AMB,34.38638888888889,-106.52944444444401,Temperate grassland desert,311.42915626859866,12.667087645095911,1,3.925833333333333,240.59974601239688,0
USA_SIL_OAK_1PR,39.91563055555555,-74.59555555555555,Temperate forest,1180.3398596549287,12.9,2,3.49,858.6496831009508,0
USA_SIL_OAK_2PR,39.91563055555555,-74.59555555555555,Temperate forest,1180.3398596549287,12.9,2,3.49,13.07462095779465,0
USA_SYL_HL2,46.2420166666667,-89.34765,Temperate forest,878.5838815678686,4.3,2,3.581666666666667,427.25694368310144,0
USA_TNB,36.471197,-84.704072,Temperate forest,1409.433273374076,13.508674514960465,0,2.3616666666666664,1963.5844291009635,2
USA_TNO,35.966,-84.28186600000002,Temperate forest,1497.0824463127594,14.613416579952169,0,1.9825,1871.2607037244784,2
USA_TNP,35.960409999999996,-84.287933,Temperate forest,1488.6585462446035,14.627981625150285,2,1.9825,1012.0430663180307,0
USA_TNY,35.687635,-83.501202,Temperate forest,1285.1274179840846,12.755143317785736,0,2.388333333333333,2918.977970192899,2
USA_UMB_CON,45.55972222222221,-84.7133333333333,Temperate forest,821.4662312279422,6.097363101945679,2,3.638333333333333,1056.062118100061,0
USA_UMB_GIR,45.5625,-84.6975,Temperate forest,793.8302522420378,6.101673175006758,2,3.6225,967.8412558967135,0
USA_WIL_WC1,45.8130555555556,-90.0866666666667,Temperate forest,872.0103481648217,5.000000000000001,0,3.208333333333333,3674.939478997621,2
USA_WVF,39.058867,-79.690668,Temperate forest,1408.3560420211718,9.39554841834926,0,3.2891666666666666,679.6341365836885,0
ZAF_FRA_FRA,-33.884334,19.060978,Woodland/Shrubland,973.8168782602936,16.699999999999996,0,3.7941666666666674,408.6395618185495,0
ZAF_NOO_E3_IRR,-33.20099166666667,19.337516666666666,Woodland/Shrubland,637.8946772174824,12.6720338438864,0,3.19,355.7480020756753,0
ZAF_SOU_SOU,-34.086999999999996,19.0933,Woodland/Shrubland,929.33201916927,15.28335143112229,0,4.055833333333333,682.0579898963377,0
